,name,address,city,state,latitude,longitude,stars,review_count,categories,is_American,is_Dessert,is_Bar,"is_Beer,Wine,Spirits",is_Breakfast,is_Coffee & Tea,is_Asian,is_Italian,"is_Healthy,Specialty Food",is_Latin American,is_Mediterranean,is_Western European,is_Slavic Food,is_African,is_Food Markets/Shops,rating
DzD2cKBrS-qOfhT3ToXsLw,Chipotle Mexican Grill,214 Indian Lake Blvd,Hendersonville,TN,36.319119,-86.599991,2.0,46,"Fast Food, Mexican, Restaurants",1,0,0,0,0,0,0,0,0,1,0,0,0,0,0,1
PjgQhtDdLHMR36l5yQ5TQg,Chili's,1820 Gallatin Pike N,Madison,TN,36.29977,-86.697398,2.5,37,"Bars, Nightlife, Restaurants, Tex-Mex, American (Traditional)",1,0,1,0,0,0,0,0,0,1,0,0,0,0,0,1
8Wi6ExrCwlUtnhXk7at95A,Santa Fe Cattle Company,2520 Music Valley Dr,Nashville,TN,36.2255624,-86.6962346,3.5,239,"Restaurants, Southern, Steakhouses",1,0,0,0,0,0,0,0,0,0,0,0,0,0,0,1
cJZmRIGu3AyjJivezu7R0w,Cracker Barrel Old Country Store,213 Indian Lake Blvd,Hendersonville,TN,36.32069,-86.60038,2.5,69,"Restaurants, Southern, Breakfast & Brunch, African, American (Traditional), Desserts, Food, Salad",1,1,0,0,1,0,0,0,1,0,0,0,0,1,0,1
UIb_JNxtyAIs4xIWhLwEoQ,Bojangles,246 Indian Lake Blvd,Hendersonville,TN,36.3255449381,-86.5958582991,3.0,12,"Fast Food, Restaurants, Food",1,0,0,0,0,0,0,0,0,0,0,0,0,0,0,1
V_ag_CMF-WhHQ0PFIsxkAA,Moore's Spicy Fried Chicken,115 Walton Ferry Rd,Hendersonville,TN,36.30282,-86.619056,4.0,168,"Restaurants, Southern, Chicken Wings, Local Flavor",1,0,0,0,0,0,0,0,0,0,0,0,0,0,0,1
zWdA6nvnfChzUz299zOzdg,Five Guys,261 Indian Lake Blvd,Hendersonville,TN,36.3278781024,-86.5968355817,3.5,24,"Restaurants, Fast Food, Burgers",1,0,0,0,0,0,0,0,0,0,0,0,0,0,0,1
O3HgxFAPvotVEIIJLM4qJA,Captain D's,305 Long Hollow Pike,Goodlettsville,TN,36.3253264482,-86.7007950731,2.5,5,"American (Traditional), Fast Food, Restaurants, Seafood, Fish & Chips",1,0,0,0,0,0,0,0,0,0,0,1,0,0,1,1
rwO1Q2WYLh-rknIsG2qJZA,Outback Steakhouse,1560 Gallatin Pike N,Madison,TN,36.2911175411,-86.703958,2.5,64,"Steakhouses, Seafood, Italian, Salad, Restaurants",1,0,0,0,0,0,0,1,1,0,0,0,0,0,1,2
HiQwgtgkvkqJmZrCyF2jBQ,McDonald's,258 Indian Lake Blvd,Hendersonville,TN,36.326555,-86.5942623,1.5,22,"Burgers, Food, Fast Food, Coffee & Tea, Restaurants",1,0,0,0,0,1,0,0,0,0,0,0,0,0,0,2
cJZmRIGu3AyjJivezu7R0w,Cracker Barrel Old Country Store,213 Indian Lake Blvd,Hendersonville,TN,36.32069,-86.60038,2.5,69,"Restaurants, Southern, Breakfast & Brunch, African, American (Traditional), Desserts, Food, Salad",1,1,0,0,1,0,0,0,1,0,0,0,0,1,0,2
toV3XBbsrmX399o6fpuoCQ,Captain D's,317 W Main St,Hendersonville,TN,36.3037700543,-86.623206813,1.5,10,"American (Traditional), Seafood, Fast Food, Fish & Chips, Restaurants",1,0,0,0,0,0,0,0,0,0,0,1,0,0,1,2
H854B_b0pWhBq3Fhn8Iqgg,Casa Vieja,206A N Anderson Ln,Hendersonville,TN,36.3219642639,-86.5980529785,3.5,74,"Mexican, Restaurants",0,0,0,0,0,0,0,0,0,1,0,0,0,0,0,2
McspEtdtkAgYlGNOo0745w,Cracker Barrel Old Country Store,1005 Village Green Crossing,Gallatin,TN,36.3779967,-86.4709111,2.5,43,"Comfort Food, Restaurants, Southern, Event Planning & Services, Caterers, Breakfast & Brunch, American (Traditional), American (New)",1,0,0,0,1,0,0,0,0,0,0,0,0,0,1,2
Eb_xjtN07qdrfQAfsb6L8w,Krystal,401 Cartwright St,Goodlettsville,TN,36.322857,-86.7070133,3.0,14,"Restaurants, Burgers, Fast Food",1,0,0,0,0,0,0,0,0,0,0,0,0,0,0,2
w_R7KfoYBrWj9H0BMj3VFw,Panera Bread,1799 Gallatin Pike N,Madison,TN,36.297213,-86.7007024,2.5,31,"Bagels, Bakeries, Restaurants, Soup, Sandwiches, Food, Breakfast & Brunch, Salad",1,1,0,0,1,0,0,0,1,0,0,0,0,0,0,2
qTFWuYTcKIGimi6kjO-rxw,Chili's,600 Village Green Dr,Gallatin,TN,36.3766476,-86.4730764,2.0,35,"Tex-Mex, Restaurants, American (Traditional), Nightlife, Bars",1,0,1,0,0,0,0,0,0,1,0,0,0,0,0,2
3nDBtuuOuNxUWIDeYowyvA,KFC,322 W Main St,Hendersonville,TN,36.304136,-86.624836,2.0,10,"Restaurants, Chicken Shop, Chicken Wings, Fast Food",1,0,0,0,0,0,0,0,0,0,0,0,0,0,1,2
OR1zqBRTlDSBEDnnAT3iEw,Steak ’n Shake,207 N Anderson Ln,Hendersonville,TN,36.3200773,-86.5985995531,2.0,66,"Burgers, Restaurants, Fast Food, Diners, Breakfast & Brunch, American (Traditional), American (New)",1,0,0,0,1,0,0,0,0,0,0,0,0,0,0,2
cHKPqkGrAB3l1KP9eIgcVg,Dos Margaritas,4 Industrial Park Dr,Hendersonville,TN,36.3059157,-86.6361966,3.5,61,"Restaurants, Mexican",0,0,0,0,0,0,0,0,0,1,0,0,0,0,0,2
Waynvy6nK4HWH_bJkdMegA,O'Charley's Restaurant & Bar,912 Rivergate Pkwy,Goodlettsville,TN,36.29964,-86.699964,2.5,45,"American (Traditional), Burgers, Breakfast & Brunch, Southern, Restaurants",1,0,0,0,1,0,0,0,0,0,0,0,0,0,0,2
8QVpuDvWiT80Dr-RDQocbA,Rio Bravo Mexican Grill,200 E Main St,Hendersonville,TN,36.3087568,-86.6049983,3.0,62,"Mexican, Restaurants",0,0,0,0,0,0,0,0,0,1,0,0,0,0,0,2
ED-YlmolJpWMosZMBe2LYg,Chili's,218 Indian Lake Blvd,Hendersonville,TN,36.3203379,-86.599195,2.0,38,"Nightlife, Restaurants, American (New), Tex-Mex, Bars, American (Traditional)",1,0,1,0,0,0,0,0,0,1,0,0,0,0,0,2
EI-7c_Zpd9HhBiVywzkIBQ,IHOP,2219 Gallatin Pike N,Madison,TN,36.30492,-86.68775,2.0,54,"Coffee & Tea, Burgers, Breakfast & Brunch, Food, American (Traditional), Restaurants, American (New)",1,0,0,0,1,1,0,0,0,0,0,0,0,0,0,3
NI96sBdkMf9mMWAomcX33g,Zaxby's Chicken Fingers & Buffalo Wings,118 N Anderson Ln,Hendersonville,TN,36.3139302,-86.5953929,3.5,12,"Fast Food, Restaurants, Salad, Chicken Wings",1,0,0,0,0,0,0,0,1,0,0,0,0,0,0,3
mq_bbdY46DlwI9tj3bEXtA,Krystal,261 W Broadway St,Gallatin,TN,36.3873788085,-86.4517865326,2.0,17,"Burgers, Restaurants, Fast Food",1,0,0,0,0,0,0,0,0,0,0,0,0,0,0,3
azBYK_PZTOlnpBPvrbqWqQ,Plaza Mexican Bar & Grill,"900 Conference Dr, Ste 14",Goodlettsville,TN,36.322642961,-86.7024820349,3.5,76,"Nightlife, Bars, Restaurants, Mexican",0,0,1,0,0,0,0,0,0,1,0,0,0,0,0,3
-x7YizC9UmmjMuSGxrw1LA,Waffle House,828 TN-76,White House,TN,36.4694776926,-86.6773388,3.0,18,"Breakfast & Brunch, American (New), Restaurants, Diners, American (Traditional)",1,0,0,0,1,0,0,0,0,0,0,0,0,0,0,3
3eQ0rI9eI6MtqWAH14TwsQ,McAlister's Deli,203 Indian Lakes Blvd,Hendersonville,TN,36.3183966197,-86.6016685598,2.5,38,"Salad, Delis, Restaurants, Sandwiches",1,0,0,0,0,0,0,0,1,0,0,0,0,0,0,3
w6g1IXTqqvTtLMrUexkD6Q,Demos' Restaurant,161 Indian Lake Blvd,Hendersonville,TN,36.3131501,-86.6072932,3.5,145,"Italian, Nightlife, Bars, Steakhouses, Greek, American (Traditional), Restaurants, Burgers, American (New), Seafood",1,0,1,0,0,0,0,1,0,0,1,0,0,0,1,3
sh8T2qHvj5LGyeW4S8baJg,Logan's Roadhouse,1007 Village Green Crossing,Gallatin,TN,36.377584,-86.471445,2.5,60,"Steakhouses, American (Traditional), American (New), Restaurants, Nightlife, Bars, Barbeque",1,0,1,0,0,0,0,0,0,0,0,0,0,0,0,3
UIb_JNxtyAIs4xIWhLwEoQ,Bojangles,246 Indian Lake Blvd,Hendersonville,TN,36.3255449381,-86.5958582991,3.0,12,"Fast Food, Restaurants, Food",1,0,0,0,0,0,0,0,0,0,0,0,0,0,0,3
2APXBHf5R-PtDj7X-8OHzQ,Roma Pizza & Pasta - Hendersonville,"260 W Main St, Ste 216",Hendersonville,TN,36.3044682,-86.6226968,3.5,29,"Italian, Restaurants, Pizza",0,0,0,0,0,0,0,1,0,0,0,0,0,0,0,3
_6K0l9oY5ETQuA4rb6CunQ,Hardee's,400 S Cartwright,Goodlettsville,TN,36.322546,-86.7077460355,2.0,18,"Restaurants, Fast Food, American (Traditional), Breakfast & Brunch, Burgers",1,0,0,0,1,0,0,0,0,0,0,0,0,0,0,3
YT0A2VuGbOAkhvJmpPXuxQ,Texas Roadhouse,1039 Glenbrook Way,Hendersonville,TN,36.331238,-86.62272,3.5,87,"American (Traditional), Restaurants, Steakhouses, Barbeque",1,0,0,0,0,0,0,0,0,0,0,0,0,0,0,3
H-Xc7JbVvxSkWfkuzwrveA,Taco Bell,1117 Gallatin Pike S.,Madison,TN,36.2484,-86.719339,1.5,30,"Restaurants, Tacos, Tex-Mex, Mexican, Fast Food, Breakfast & Brunch",1,0,0,0,1,0,0,0,0,1,0,0,0,0,0,3
rrrOJ_vYXuQaouyLZROThQ,Raffertys Restaurant & Bar,4041 Armory Oaks Dr,Nashville,TN,36.1047744274,-86.7625423077,3.5,99,"Restaurants, American (Traditional)",1,0,0,0,0,0,0,0,0,0,0,0,0,0,0,3
-vbvT-Act1BqND2QfF7vlA,Sonic Drive-In,1565 North Gallatin Pike,MADISON,TN,36.2912299,-86.70274,2.0,12,"Burgers, Fast Food, Ice Cream & Frozen Yogurt, Restaurants, Food",1,1,0,0,0,0,0,0,0,0,0,0,0,0,0,3
rwO1Q2WYLh-rknIsG2qJZA,Outback Steakhouse,1560 Gallatin Pike N,Madison,TN,36.2911175411,-86.703958,2.5,64,"Steakhouses, Seafood, Italian, Salad, Restaurants",1,0,0,0,0,0,0,1,1,0,0,0,0,0,1,3
xtWtLK1_F5rnA2pcfFp6Xg,Waffle House,380 Hwy 109 N,Lebanon,TN,36.1896434,-86.4105639,2.5,18,"Restaurants, Breakfast & Brunch, Diners, American (Traditional), American (New)",1,0,0,0,1,0,0,0,0,0,0,0,0,0,0,3
kOdCszON4PL0JNFV-QIFPA,O'Charley's Restaurant & Bar,110 Coley Davis Ct,Nashville,TN,36.08143,-86.953869,3.0,70,"Burgers, Restaurants, American (Traditional), Breakfast & Brunch, Southern",1,0,0,0,1,0,0,0,0,0,0,0,0,0,0,3
unkAACN449zW3jtS8N2yiA,The Coffee House at Second and Bridge,144 2nd Ave,Franklin,TN,35.927394,-86.868338,4.0,147,"Food, Sandwiches, Coffee & Tea, Creperies, Tea Rooms, Cafes, Restaurants",1,1,0,0,0,1,0,0,0,0,0,0,0,0,0,3
PjgQhtDdLHMR36l5yQ5TQg,Chili's,1820 Gallatin Pike N,Madison,TN,36.29977,-86.697398,2.5,37,"Bars, Nightlife, Restaurants, Tex-Mex, American (Traditional)",1,0,1,0,0,0,0,0,0,1,0,0,0,0,0,3
pokS0UOGVKuILWtS1HNLBA,Applebee's Grill + Bar,718 Thompson Ln,Nashville,TN,36.112401,-86.765567,2.5,83,"Restaurants, American (Traditional), Sports Bars, Chicken Wings, Steakhouses, American (New), Bars, Nightlife, Burgers",1,0,1,0,0,0,0,0,0,0,0,0,0,0,0,3
4_IhZZcWHlIoRd681053Eg,Wendy's,4104 Hillsboro Circle,Nashville,TN,36.1016782,-86.819308,1.5,28,"Restaurants, Fast Food, Burgers",1,0,0,0,0,0,0,0,0,0,0,0,0,0,0,3
ondYW-Ui0OYz4vhxAfYuWQ,Taco Bell,210 Indian Lake Blvd.,Hendersonville,TN,36.318979,-86.601725,2.0,25,"Restaurants, Mexican, Tacos, Tex-Mex, Breakfast & Brunch, Fast Food",1,0,0,0,1,0,0,0,0,1,0,0,0,0,0,3
8ikj9GaC2oEf_leisl-Wrg,Nashville Biscuit House,805 Gallatin Ave,Nashville,TN,36.1860512,-86.7469214,4.0,530,"Diners, Restaurants, Southern, Local Flavor",1,0,0,0,1,0,0,0,0,0,0,0,0,0,0,3
8uKkOR_LIHtN-LTl5IelKA,Cracker Barrel Old Country Store,4210 Franklin Common Ct,Franklin,TN,35.9123546,-86.8229329,2.5,61,"Restaurants, Desserts, Southern, Salad, Event Planning & Services, Comfort Food, Caterers, American (Traditional), Breakfast & Brunch, Food",1,1,0,0,1,0,0,0,1,0,0,0,0,0,1,3
HGpo8xl2mmYInwnHXenHCQ,Tazza Cafe,620 W Main St,Hendersonville,TN,36.3030615,-86.6370577,2.5,139,"Restaurants, Cafes",0,0,0,0,0,1,0,0,0,0,0,0,0,0,0,3
Q4tTrdDJ95_PviqNh6w74A,Sonic Drive-In,3910 Gallatin Pike,Nashville,TN,36.2165892945,-86.7286759816,2.0,32,"Ice Cream & Frozen Yogurt, Burgers, Fast Food, Food, Restaurants",1,1,0,0,0,0,0,0,0,0,0,0,0,0,0,3
iQJw5sNNipl5yi8j9oqPhQ,Popeyes Louisiana Kitchen,735 Myatt Dr,Madison,TN,36.295948,-86.697771,2.0,36,"Fast Food, Restaurants, Southern, American (Traditional), Chicken Wings",1,0,0,0,0,0,0,0,0,0,0,0,0,0,0,3
plVe3iG2c2o7yhGI1U8GcA,Arigato Sayonara,2021 Gallatin Pike N,Madison,TN,36.3014077048,-86.6925386079,4.0,128,"Restaurants, Sushi Bars, Japanese",0,0,1,0,0,0,1,0,0,0,0,0,0,0,0,3
C5XdxHdAtCduFZm5l0N4FQ,Chili's,5005 Old Hickory Blvd,Hermitage,TN,36.194917,-86.6198659488,2.5,79,"American (Traditional), American (New), Nightlife, Bars, Tex-Mex, Restaurants",1,0,1,0,0,0,0,0,0,1,0,0,0,0,0,3
RLlOK2fL6xU1sfIPiP2QBw,Deanie's Seafood,841 Iberville St,New Orleans,LA,29.955347,-90.069806,3.5,2473,"Restaurants, American (Traditional), Food, French, Specialty Food, Seafood, Diners, Cajun/Creole, Seafood Markets, Event Planning & Services, Southern, Caterers, Salad",1,0,0,0,1,0,0,0,1,0,0,1,0,0,1,3
4LQbEuWpzj0hkDGN2urxnw,Culver's,290 Indian Lake Blvd,Hendersonville,TN,36.3284950256,-86.5931930542,3.0,50,"Fast Food, Restaurants, Food, Burgers, Ice Cream & Frozen Yogurt",1,1,0,0,0,0,0,0,0,0,0,0,0,0,0,3
zJmp_J8SUNosLxk6borpFg,The Wild Cow,"1100 Fatherland St, Ste 104",Nashville,TN,36.173823,-86.750055,4.5,993,"American (New), Vegan, Restaurants, Vegetarian",1,0,0,0,0,0,0,0,1,0,0,0,0,0,0,3
35xfN-Xa9Sg0hmeZ0aEjMQ,Taco Bell,4000 Nolensville Road,Nashville,TN,36.084603,-86.728125,1.5,24,"Restaurants, Tacos, Mexican, Breakfast & Brunch, Fast Food, Tex-Mex",1,0,0,0,1,0,0,0,0,1,0,0,0,0,0,3
wgbpUjyNNC-Q3iBvnfLcNw,Panera Bread,1037 Glenbrook Way,Hendersonville,TN,36.3313205315,-86.6221751878,2.5,57,"Soup, Breakfast & Brunch, Sandwiches, Salad, Restaurants, Bakeries, Food, Bagels",1,1,0,0,1,0,0,0,1,0,0,0,0,0,0,3
YeLsrRYpDeW7yIqOt2qycQ,Arby's Roastbeef,912 Conference Dr,Goodlettsville,TN,36.32392,-86.7015517,2.5,15,"Restaurants, Fast Food, Sandwiches",1,0,0,0,0,0,0,0,0,0,0,0,0,0,0,3
ED-YlmolJpWMosZMBe2LYg,Chili's,218 Indian Lake Blvd,Hendersonville,TN,36.3203379,-86.599195,2.0,38,"Nightlife, Restaurants, American (New), Tex-Mex, Bars, American (Traditional)",1,0,1,0,0,0,0,0,0,1,0,0,0,0,0,3
BDYL4lMlT6fpKgiNlJRclA,Red Lobster,110 Ludwig Dr,Fairview Heights,IL,38.600549,-89.992023,3.0,79,"Seafood, American (Traditional), Restaurants",1,0,0,0,0,0,0,0,0,0,0,0,0,0,1,3
1b5mnK8bMnnju_cvU65GqQ,Biscuit Love: Gulch,316 11th Ave S,Nashville,TN,36.1530503,-86.7832308,4.0,4207,"Burgers, American (Traditional), Breakfast & Brunch, Restaurants, Southern",1,0,0,0,1,0,0,0,0,0,0,0,0,0,0,3
SAp1Nk3XLbQ-zeJKyASICQ,The Cheesecake Factory - Nashville,2133 Green Hills Village Dr,Nashville,TN,36.1077307585,-86.8148960701,3.5,415,"Restaurants, Food, American (New), Seafood, American (Traditional), Desserts, Salad",1,1,0,0,0,0,0,0,1,0,0,0,0,0,1,3
4yuztwDxmAlzXZ9isFwrmw,Waffle House,1090 W Main St,Hendersonville,TN,36.3075636,-86.6552508,3.0,18,"American (Traditional), Diners, American (New), Restaurants, Breakfast & Brunch",1,0,0,0,1,0,0,0,0,0,0,0,0,0,0,3
dvQYqyJiXVFEbbSG4e82hg,Arby's,1779 Gallatin Pike N,Madison,TN,36.294991,-86.701705,3.5,6,"Restaurants, Fast Food, Sandwiches",1,0,0,0,0,0,0,0,0,0,0,0,0,0,0,3
yXtcHmOR4pQKpRjta7YEWQ,Awedaddys Bar & Grill,727 Marina Private Rd,Gallatin,TN,36.3473924989,-86.4769465284,4.0,86,"Restaurants, American (Traditional), Seafood, Nightlife, Bars, Breakfast & Brunch",1,0,1,0,1,0,0,0,0,0,0,0,0,0,1,3
TZXerCtmzNNSnOZ4IOrKyQ,Penn Station East Coast Subs,"202 N Anderson Ln, Ste 105",Hendersonville,TN,36.3207387797,-86.5969581997,2.5,19,"Restaurants, Sandwiches",1,0,0,0,0,0,0,0,0,0,0,0,0,0,0,3
t-RHwZzlTAZeTcgrrbRtqg,The Grilled Cheeserie,2003 Belcourt Ave,Nashville,TN,36.1366822,-86.7998676,4.0,561,"Street Vendors, Restaurants, Food Stands, Sandwiches, Food Trucks, Cheese Shops, Specialty Food, Food",1,0,0,0,0,0,0,0,1,0,0,0,0,0,1,4
iCKF72z3fqRTF1vxdBZINQ,Village Pub & Beer Garden,1308 McGavock Pike,Nashville,TN,36.2043436,-86.7247994,4.0,260,"American (Traditional), Food, American (New), Bars, Restaurants, Nightlife, Beer, Wine & Spirits",1,0,1,1,0,0,0,0,0,0,0,0,0,0,0,4
aiThB016Yk5mcauVKtSpNA,Jamaicaway Restaurant & Catering,"900 Rosa L Parks Blvd, Ste 120",Nashville,TN,36.1706890498,-86.788995672,4.0,201,"Event Planning & Services, Vegetarian, Caterers, Restaurants, Caribbean, Vegan",0,0,0,0,0,0,0,0,1,0,0,0,0,0,1,4
VAeEXLbEcI9Emt9KGYq9aA,The Pharmacy,731 McFerrin Ave,Nashville,TN,36.1849355,-86.7541885,4.0,3054,"Burgers, Sandwiches, Food, Beer, Wine & Spirits, American (Traditional), Bars, Nightlife, Restaurants",1,0,1,1,0,0,0,0,0,0,0,0,0,0,0,4
PwbeSKSCBnqXJlAxEaUrnA,Rosepepper Mexican Grill,1907 Eastland Ave,Nashville,TN,36.1827471,-86.7352329,3.0,777,"Nightlife, Bars, Restaurants, Dive Bars, Mexican",0,0,1,0,0,0,0,0,0,1,0,0,0,0,0,4
-P7CxFXqAyZ7_ep4r4W-Zg,Cracker Barrel Old Country Store,4323 Sidco Dr,Nashville,TN,36.0829,-86.76234,2.5,117,"Event Planning & Services, American (Traditional), Restaurants, Southern, American (New), Comfort Food, Caterers, Breakfast & Brunch, Food, Desserts",1,1,0,0,1,0,0,0,0,0,0,0,0,0,1,4
qe5fWtR9u-Pqg1pJBR5G0g,Jack's Bar-B-Que - Nashville,334 W Trinity Ln,Nashville,TN,36.206916,-86.782476,4.0,357,"Southern, Barbeque, Restaurants",1,0,0,0,0,0,0,0,0,0,0,0,0,0,0,4
0f69gYJBDkWpi-F9JlPSkA,First Watch,"271 Indian Lake Blvd, Ste 140",Hendersonville,TN,36.32808,-86.59461,4.0,159,"Cafes, American (Traditional), Restaurants, Breakfast & Brunch",1,0,0,0,1,1,0,0,0,0,0,0,0,0,0,4
3nHT_sqsDHlL9TopjpNRrw,Carrabba's Italian Grill,202 Anderson Ln N,Hendersonville,TN,36.3207324,-86.5972443,3.5,117,"Seafood, Restaurants, Italian",0,0,0,0,0,0,0,1,0,0,0,0,0,0,1,4
E7W2rjNXy9UF0trIEtqLDA,Moby Dicky's,155 Sanders Ferry Rd,Hendersonville,TN,36.2980094201,-86.6141516715,4.0,273,"Sports Bars, Bars, Seafood, Restaurants, Nightlife",0,0,1,0,0,0,0,0,0,0,0,0,0,0,1,4
FbTlPul0byYrG953tRCaXA,Center Point Barbecue,1212 W Main St,Hendersonville,TN,36.3096564,-86.6665613,4.0,210,"Barbeque, Restaurants, American (Traditional)",1,0,0,0,0,0,0,0,0,0,0,0,0,0,0,4
EDe9pJlIMuviE84l_iLBUg,Peking House,105 Township Dr,Hendersonville,TN,36.3211304,-86.6238324,3.5,35,"Chinese, Restaurants",0,0,0,0,0,0,1,0,0,0,0,0,0,0,0,4
tIvfmgT1qMeAEQf8CI5fPQ,Caney Fork River Valley Grille,2400 Music Valley Dr,Nashville,TN,36.217523114,-86.6967334359,3.5,574,"Bars, Nightlife, American (Traditional), Barbeque, Seafood, Beer Bar, Sports Bars, Restaurants, Burgers, Steakhouses, Southern",1,0,1,1,0,0,0,0,0,0,0,0,0,0,1,4
gVU0U7gNBMQxKTzqmRtdLg,Merchants,401 Broadway,Nashville,TN,36.1606894036,-86.7772081877,4.0,2040,"Burgers, Steakhouses, American (New), Chicken Wings, Barbeque, American (Traditional), Sandwiches, Restaurants, Nightlife, Bars, Pubs",1,0,1,0,0,0,0,0,0,0,0,0,0,0,0,4
Sh5x88Ty9NGgMvLoIKxAiQ,Ole Red,300 Broadway,Nashville,TN,36.1617128,-86.7763333,3.5,629,"Bars, Nightlife, Restaurants, Music Venues, American (New), Arts & Entertainment, Event Planning & Services, Southern, Venues & Event Spaces",1,0,1,0,0,0,0,0,0,0,0,0,0,0,0,4
_-OS3-VMVJKbFeO-sCLoNQ,Red Lobster,"1814 Gallatin Pike N, ACROSS FROM RIVERGATE MALL",Madison,TN,36.2994217537,-86.6978563192,3.0,44,"Seafood, American (Traditional), Restaurants",1,0,0,0,0,0,0,0,0,0,0,0,0,0,1,4
RYYMQiesuGflwx1IsAM8gg,Music City Diner,"102 Glen Oak Blvd, Ste 210",Hendersonville,TN,36.3235785717,-86.6193361021,4.5,122,"Diners, Breakfast & Brunch, Restaurants, Greek, American (Traditional), Cafes",1,0,0,0,1,1,0,0,0,0,1,0,0,0,0,4
BxhkoR6cscJwwex8gx31OA,Bar-B-Cutie,1787 Gallatin Pike N,Madison,TN,36.296536,-86.700179,3.5,40,"Restaurants, Barbeque",1,0,0,0,0,0,0,0,0,0,0,0,0,0,0,4
ZHMwj4mU6oE-o6WK4leiSQ,Buca di Beppo Italian Restaurant,1722 Galleria Blvd,Franklin,TN,35.9636010457,-86.80974,3.0,232,"Restaurants, Food, Italian, Caterers, Event Planning & Services, Pizza",0,0,0,0,0,0,0,1,0,0,0,0,0,0,1,4
T8-IqBGDARm7Ry0DKTdT_g,Red Robin Gourmet Burgers and Brews,302 Indian Lake Blvd,Hendersonville,TN,36.3297977,-86.5930402,2.5,62,"Restaurants, American (Traditional), Burgers",1,0,0,0,0,0,0,0,0,0,0,0,0,0,0,4
2XlnquSnBb1ayfsw3Lk71g,Kitchen Cabinet Cafe,4580 Rachel S Ln,Nashville,TN,36.2150411,-86.6130422,3.0,9,"Restaurants, American (Traditional), Event Planning & Services, Cafes, Sandwiches, Caterers",1,0,0,0,0,1,0,0,0,0,0,0,0,0,1,4
I2CxrvM0BGH1svfxqGGD2g,M.L.Rose Craft Beer & Burgers - Melrose,"2535 8th Ave S, Ste 107",Nashville,TN,36.1226231735,-86.7761365195,3.5,472,"Automotive, Restaurants, Sandwiches, Bars, Nightlife, Pubs, American (Traditional), Burgers, Beer Bar, Sports Bars, Breakfast & Brunch",1,0,1,1,1,0,0,0,0,0,0,0,0,0,0,4
EgaTZYWDHpv7yA45aO0ROg,The Lost Cajun,"206A N Anderson Ln, Ste 700",Hendersonville,TN,36.3223490059,-86.5978991734,4.5,348,"Soul Food, Food, Restaurants, Seafood, Cajun/Creole",1,0,0,0,0,0,0,0,0,0,0,0,0,0,1,4
tELoGj2QJYYFQ1jo_XXbpA,Robert's Western World,"416 Broadway, Ste B",Nashville,TN,36.1610407,-86.7780154,4.5,822,"Music Venues, Nightlife, Bars, American (Traditional), Arts & Entertainment, Restaurants, Burgers, Dive Bars",1,0,1,0,0,0,0,0,0,0,0,0,0,0,0,4
XXSRQj02oCBr0w2xMOftLw,Jason's Deli,2028 West End Ave,Nashville,TN,36.1508904,-86.8010644,4.0,98,"Event Planning & Services, Sandwiches, Salad, Caterers, Delis, Restaurants",1,0,0,0,0,0,0,0,1,0,0,0,0,0,1,4
nSRJgIiuRIT2wctA56xxBA,Whitt's Barbecue,2629 Lebanon Pike,Nashville,TN,36.169343,-86.67308,3.0,27,"Sandwiches, Barbeque, Restaurants, Chicken Wings",1,0,0,0,0,0,0,0,0,0,0,0,0,0,0,4
JpJZHrEimgW609Y9yKvCPQ,LongHorn Steakhouse,1003 Nashville Pike,Gallatin,TN,36.3761181835,-86.4711723275,3.5,60,"Steakhouses, Barbeque, Restaurants, American (Traditional)",1,0,0,0,0,0,0,0,0,0,0,0,0,0,0,4
am3QhsWBeUfKwW4LgBIF6w,Noshville Delicatessen,4014 Hillsboro Cir,Nashville,TN,36.1026708,-86.8187098,3.5,164,"Delis, Restaurants, Diners",1,0,0,0,1,0,0,0,0,0,0,0,0,0,0,4
5fb_BPmweD9oapVqJrWNcA,The Catfish House,3424 Tom Austin Hwy,Springfield,TN,36.4863922,-86.8856562,4.0,49,"Sandwiches, Food, Coffee & Tea, Restaurants, Salad, Steakhouses, Seafood, American (Traditional)",1,0,0,0,0,1,0,0,1,0,0,0,0,0,1,4
SzZsbwL8iayikiHRWkgMTg,Steak ’n Shake,719 Myatt Dr,Madison,TN,36.2949991623,-86.6968582571,2.5,41,"American (Traditional), Steakhouses, Restaurants, American (New), Fast Food, Breakfast & Brunch, Burgers, Diners",1,0,0,0,1,0,0,0,0,0,0,0,0,0,0,4
nygJ4mY0glpdWGv_Hmp6Dg,Joe's Crab Shack,123 2nd Ave S,Nashville,TN,36.1609473485,-86.7748649418,3.0,192,"American (Traditional), Seafood, Gluten-Free, Restaurants",1,0,0,0,0,0,0,0,1,0,0,0,0,0,1,4
dbUSqTB-p1mBeshyAK4kMg,Red Rooster Cafe,801 W Main St,Hendersonville,TN,36.303516,-86.6464159,4.0,103,"Southern, Cafes, Restaurants, Breakfast & Brunch, American (Traditional)",1,0,0,0,1,1,0,0,0,0,0,0,0,0,0,4
5DDPX5QQS43uACR1MiCVPA,Bavarian Bierhaus,"121 Opry Mills Dr, Ste 315",Nashville,TN,36.2037825616,-86.6933882711,3.5,539,"Beer Bar, Music Venues, Desserts, Nightlife, Bars, Arts & Entertainment, Restaurants, German, Food",0,1,1,1,0,0,0,0,0,0,0,0,1,0,0,4
pWT3WAUvww4iqF-v2htBXA,Pomodoro East,701 Porter Rd,Nashville,TN,36.1827451126,-86.7336246651,4.0,244,"Italian, Bars, Wine Bars, Nightlife, Restaurants, Food, Breakfast & Brunch, Beer, Wine & Spirits",0,0,1,1,1,0,0,1,0,0,0,0,0,0,0,4
1KpNlu8VM8ukw3uOzmMFPA,BB King's Blues Club,152 2nd Ave N,Nashville,TN,36.1634244309,-86.7760296865,3.5,583,"Music Venues, American (Traditional), Wine Bars, Restaurants, Jazz & Blues, Nightlife, Bars, Arts & Entertainment",1,0,1,1,0,0,0,0,0,0,0,0,0,0,0,4
zbvu8pRKcOQqdjqRGbncyQ,Cheddar's Scratch Kitchen,210 Anderson Ln N,Hendersonville,TN,36.3214422787,-86.5986949568,3.0,117,"Southern, American (Traditional), American (New), Restaurants, Comfort Food",1,0,0,0,0,0,0,0,0,0,0,0,0,0,0,4
HCqmx4ENAZ76SAjoalj-MQ,Puckett's Grocery & Restaurant,120 4th Ave S,Franklin,TN,35.9237549,-86.8700112,4.0,850,"Barbeque, American (Traditional), Arts & Entertainment, Southern, Breakfast & Brunch, Comfort Food, Nightlife, Music Venues, Restaurants, Food, Grocery",1,0,1,0,1,0,0,0,0,0,0,0,0,0,1,4
fmF58w_cI8Ef-WAIGM3-QA,Carrabba's Italian Grill,2110 Greenhills Village Dr,Nashville,TN,36.1085523,-86.812962,3.5,162,"Restaurants, Seafood, Italian",0,0,0,0,0,0,0,1,0,0,0,0,0,0,1,4
CBo-YlPMKs3vdYJQRtuznQ,Monell's at the Manor,1400 Murfreesboro Pike,Nashville,TN,36.115335,-86.690199,4.5,476,"Salad, Caterers, Restaurants, Desserts, Food, Soul Food, Southern, Event Planning & Services, Breakfast & Brunch, Venues & Event Spaces",1,1,0,0,1,0,0,0,1,0,0,0,0,0,1,4
ohTz7lyihPtBgIpGbDkX1w,Safari's Brick Oven & Grill,230 E Main St,Hendersonville,TN,36.309478,-86.6035854,3.5,76,"Restaurants, Bars, Nightlife, Sports Bars, American (New), Seafood, Pizza, American (Traditional), Sandwiches",1,0,1,0,0,0,0,1,0,0,0,0,0,0,1,4
GGFmwJLQrwbI9Ytr7IrLvg,Cracker Barrel Old Country Store,2406 Music Valley Dr,Nashville,TN,36.21813,-86.69674,3.5,149,"Comfort Food, Event Planning & Services, Southern, Caterers, American (Traditional), Restaurants, Food, Breakfast & Brunch, Salad, Desserts",1,1,0,0,1,0,0,0,1,0,0,0,0,0,1,4
BsZHeZqCirB_9xS_7kZlvw,Southern Hospitality Diner,7301 Nolensville Rd,Nolensville,TN,35.952871,-86.670021,3.5,91,"Restaurants, Southern, Breakfast & Brunch, Diners",1,0,0,0,1,0,0,0,0,0,0,0,0,0,0,4
qdUx7wxwnT80MkaqGCTfSQ,Noshville,4014 Hillsboro Cir,Nashville,TN,36.1026661,-86.8189353,3.5,344,"Sandwiches, Delis, Restaurants, Kosher, Diners",1,0,0,0,1,0,0,0,1,0,0,0,0,0,0,4
jOOOrH5n2ijnsZKxzPSAiw,Chick-fil-A,6500 Charlotte Pike,Nashville,TN,36.14023653,-86.87969636,3.5,112,"Caterers, Food Delivery Services, Fast Food, Food, Restaurants, Event Planning & Services, Salad, Chicken Shop",1,0,0,0,0,0,0,0,1,0,0,0,0,0,1,4
MJI-bNIn3QDgiGggm9Wp1w,Moby Dick Restaurant,220 Stearns Wharf,Santa Barbara,CA,34.4092096,-119.6854512,3.0,871,"Seafood, American (Traditional), Breakfast & Brunch, Restaurants",1,0,0,0,1,0,0,0,0,0,0,0,0,0,1,4
vgZwA2X7X5oGcui9BDBgbw,Amish Country Market At The Feed Mill,7280 Nolensville Rd,Nolensville,TN,35.9539551,-86.6700407,4.0,69,"Bakeries, Farmers Market, Restaurants, Breakfast & Brunch, Specialty Food, Cheese Shops, Food",0,1,0,0,1,0,0,0,1,0,0,0,0,0,1,4
cJZmRIGu3AyjJivezu7R0w,Cracker Barrel Old Country Store,213 Indian Lake Blvd,Hendersonville,TN,36.32069,-86.60038,2.5,69,"Restaurants, Southern, Breakfast & Brunch, African, American (Traditional), Desserts, Food, Salad",1,1,0,0,1,0,0,0,1,0,0,0,0,1,0,4
0U_OKGqqh4Zso95bevQqFQ,Hardee's,1436 Robinson Rd,Old Hickory,TN,36.2562093804,-86.6551776675,2.5,20,"Fast Food, Restaurants, American (Traditional), Breakfast & Brunch, Burgers",1,0,0,0,1,0,0,0,0,0,0,0,0,0,0,4
w_R7KfoYBrWj9H0BMj3VFw,Panera Bread,1799 Gallatin Pike N,Madison,TN,36.297213,-86.7007024,2.5,31,"Bagels, Bakeries, Restaurants, Soup, Sandwiches, Food, Breakfast & Brunch, Salad",1,1,0,0,1,0,0,0,1,0,0,0,0,0,0,4
HF4Oh0KDTYo6xvf_JCoybQ,Aquarium Restaurant,516 Opry Mills Dr,Nashville,TN,36.2053817,-86.6936052,3.5,568,"Aquariums, Active Life, American (Traditional), Seafood, Restaurants",1,0,0,0,0,0,0,0,0,0,0,0,0,0,1,4
iQ3DcP5RuQdKrKphx-r0aw,Jumbo & Delicious,110 Imperial Blvd,Hendersonville,TN,36.30113,-86.632557,4.5,257,"Sandwiches, Burgers, Restaurants",1,0,0,0,0,0,0,0,0,0,0,0,0,0,0,4
V_ag_CMF-WhHQ0PFIsxkAA,Moore's Spicy Fried Chicken,115 Walton Ferry Rd,Hendersonville,TN,36.30282,-86.619056,4.0,168,"Restaurants, Southern, Chicken Wings, Local Flavor",1,0,0,0,0,0,0,0,0,0,0,0,0,0,0,4
zWdA6nvnfChzUz299zOzdg,Five Guys,261 Indian Lake Blvd,Hendersonville,TN,36.3278781024,-86.5968355817,3.5,24,"Restaurants, Fast Food, Burgers",1,0,0,0,0,0,0,0,0,0,0,0,0,0,0,4
o6b-VwNvh8KSR902jha3gg,Rainforest Cafe,353 Opry Mills Dr,Nashville,TN,36.2001992,-86.6916882,3.0,192,"Restaurants, Event Planning & Services, American (Traditional), Seafood, Party & Event Planning",1,0,0,0,0,0,0,0,0,0,0,0,0,0,1,4
MaGv2pNTFyFmetCHUngngA,Firehouse Subs,480 Long Hollow Pike,Goodlettsville,TN,36.33096468,-86.69751069,3.5,19,"Delis, Fast Food, Sandwiches, Restaurants",1,0,0,0,0,0,0,0,0,0,0,0,0,0,0,4
Mpg_28s1nDkRPHi0bL35Dg,Olive Garden Italian Restaurant,1711 Gallatin Rd N,Madison,TN,36.2949893676,-86.7000051,3.0,65,"Italian, Bars, Wine Bars, Restaurants, Nightlife, Salad, Soup",1,0,1,1,0,0,0,1,1,0,0,0,0,0,0,4
XlvQFgMcMpic6X1cW06VoQ,Bonefish Grill,3010 A Mallory Ln,Franklin,TN,35.9469222479,-86.8180705288,3.5,187,"Nightlife, Bars, American (New), Cocktail Bars, Seafood, Restaurants, American (Traditional)",1,0,1,0,0,0,0,0,0,0,0,0,0,0,1,4
ORL4JE6tz3rJxVqkdKfegA,Gaylord Opryland Resort & Convention Center,2800 Opryland Dr,Nashville,TN,36.2115923083,-86.6943191727,3.0,1639,"Venues & Event Spaces, Performing Arts, Arts & Entertainment, Hotels & Travel, Food, Convenience Stores, American (New), Beauty & Spas, Restaurants, Museums, Event Planning & Services, Hotels, Cinema, Resorts, Day Spas",1,0,0,0,0,0,0,0,0,0,0,0,0,0,0,4
KGYQFUSqOFMj1T65cBcGgA,Chuy's,163B Opry Mills Dr,Nashville,TN,36.2042652613,-86.6916072105,3.5,415,"Restaurants, Nightlife, Mexican, Tex-Mex, Cocktail Bars, Bars",1,0,1,0,0,0,0,0,0,1,0,0,0,0,0,4
iwmW2mgcn2YdirXUHCsgXQ,Bourbon House,144 Bourbon St,New Orleans,LA,29.954618,-90.06918,3.5,2026,"Restaurants, Cajun/Creole, Seafood",1,0,0,0,0,0,0,0,0,0,0,0,0,0,1,4
AdT6vMVYy2uFFfnYbWoAsw,NY Pie,305 Indian Lake Blvd,Hendersonville,TN,36.330411,-86.5942905,4.0,123,"Restaurants, Pizza",0,0,0,0,0,0,0,1,0,0,0,0,0,0,0,4
bCZFb9v6OQaNTgupVw9WEg,Fulin's Asian Cuisine,206 N Anderson Ln,Hendersonville,TN,36.3226110943,-86.5977295102,3.5,135,"Specialty Food, Ethnic Food, Sushi Bars, Thai, Japanese, Chinese, Food, Asian Fusion, Restaurants",0,0,1,0,0,0,1,0,1,0,0,0,0,0,0,4
JWqbjm0wtbbciu_Gb6Eqyw,Mcnamara's Irish Pub and Restaurant,2740 Old Lebanon Rd,Nashville,TN,36.16886,-86.66446,4.5,724,"Restaurants, Irish, Irish Pub, Sandwiches, Bars, Nightlife",1,0,1,0,0,0,0,0,0,0,0,1,0,0,0,4
eqRhnAOOLVSy-6JWBCkqiw,Five Guys,330 Franklin Rd,Brentwood,TN,36.0266117,-86.7902548,3.5,56,"Burgers, American (New), Food, Fast Food, Restaurants",1,0,0,0,0,0,0,0,0,0,0,0,0,0,0,4
fDPvDKfLflcalAEA_yUiJg,Big Easy Daiquiris,409 Decatur St,New Orleans,LA,29.9546832,-90.0649458,3.5,62,"Cocktail Bars, Local Flavor, Nightlife, Restaurants, Pizza, Bars",1,0,1,0,0,0,0,1,0,0,0,0,0,0,0,4
sjl5yn2tqswhZm33L4xImA,Casa Vieja,711 E Main St,Hendersonville,TN,36.3255448467,-86.5631949184,3.5,65,"Restaurants, Mexican",0,0,0,0,0,0,0,0,0,1,0,0,0,0,0,4
Q5hO78LBen0-h_VF1IYulw,Blossom & Cellar Door Craft Cavern,"750 W Main St, Ste B",Hendersonville,TN,36.3039696,-86.6421604,4.0,203,"Thai, Lounges, Beer Bar, Restaurants, Bars, Laotian, Nightlife",0,0,1,1,0,0,1,0,0,0,0,0,0,0,0,4
KFKzQpM3NtQAssAWFn9eLw,LongHorn Steakhouse,"2021 Gallatin Pike N, Ste 296",Madison,TN,36.3010827942,-86.6933061265,3.0,70,"Barbeque, Restaurants, Steakhouses, American (Traditional)",1,0,0,0,0,0,0,0,0,0,0,0,0,0,0,4
sBRKxVbRBmeXY9mVwliqYw,Someone's in the Kitchen,109 Walton Ferry Rd,Hendersonville,TN,36.303315586,-86.6197353349,4.0,63,"Wraps, Specialty Food, Bakeries, Desserts, Breakfast & Brunch, Food, Restaurants, Sandwiches, Cafes",1,1,0,0,1,1,0,0,1,0,0,0,0,0,0,4
0_3sLdpwzhXnkjSA3My71Q,Myers Front Porch,162 E Main St,Hendersonville,TN,36.3066027653,-86.6092118825,4.0,61,"Food, Coffee & Tea, Restaurants, Breakfast & Brunch",0,0,0,0,1,1,0,0,0,0,0,0,0,0,0,4
ZeEk0ePOZZXgo7EMDZ0kAg,Cousins Maine Lobster - Nashville,,Nashville,TN,36.1664702,-86.7837366,3.5,141,"Seafood, Restaurants, Food, Food Trucks",0,0,0,0,0,0,0,0,0,0,0,0,0,0,1,5
_ab50qdWOk0DdB6XOrBitw,Acme Oyster House,724 Iberville St,New Orleans,LA,29.9542735,-90.0689651,4.0,7568,"Live/Raw Food, Seafood, Restaurants, Cajun/Creole",1,0,0,0,0,0,0,0,0,0,0,0,0,0,1,5
QdKLyqac0Smpg1n7JTnrGg,City Farm Company,1407 Clinton St,Nashville,TN,36.163673,-86.7972187,5.0,7,"Southern, Food, Party & Event Planning, Restaurants, American (New), Event Planning & Services, Caterers, Farmers Market",1,0,0,0,0,0,0,0,0,0,0,0,0,0,1,5
LICbmW9NVcSB6d0ITXvadQ,Amerigo Italian Restaurant,1656 Westgate Cir,Brentwood,TN,35.9663995173,-86.8045954,4.0,228,"Event Planning & Services, Italian, Venues & Event Spaces, Caterers, Tapas Bars, Restaurants",0,0,1,0,0,0,0,1,0,0,0,0,0,0,1,5
0nMdZRSeaABr2PRbs_cpiw,China Cottage Restaurant,1795 Gallatin Pike N,Madison,TN,36.2968418235,-86.7010367251,4.0,156,"Restaurants, Chinese",0,0,0,0,0,0,1,0,0,0,0,0,0,0,0,5
OWOOc0YjU_kioLeEgo5VCA,Loveless Cafe,8400 Hwy 100,Nashville,TN,36.035175,-86.972013,4.5,2452,"Food, American (Traditional), Arts & Entertainment, Southern, Nightlife, Restaurants, Breakfast & Brunch, Music Venues",1,0,1,0,1,0,0,0,0,0,0,0,0,0,0,5
mXNJzDD54cefU3DNIVi5hA,Cracker Barrel Old Country Store,235 Long Hollow Pike,Goodlettsville,TN,36.32408,-86.70278,3.0,87,"Event Planning & Services, Restaurants, Caterers, Salad, American (Traditional), Spanish, Comfort Food, Food, Southern, Breakfast & Brunch, Desserts",1,1,0,0,1,0,0,0,1,1,0,1,0,0,1,5
bCZFb9v6OQaNTgupVw9WEg,Fulin's Asian Cuisine,206 N Anderson Ln,Hendersonville,TN,36.3226110943,-86.5977295102,3.5,135,"Specialty Food, Ethnic Food, Sushi Bars, Thai, Japanese, Chinese, Food, Asian Fusion, Restaurants",0,0,1,0,0,0,1,0,1,0,0,0,0,0,0,5
1b5mnK8bMnnju_cvU65GqQ,Biscuit Love: Gulch,316 11th Ave S,Nashville,TN,36.1530503,-86.7832308,4.0,4207,"Burgers, American (Traditional), Breakfast & Brunch, Restaurants, Southern",1,0,0,0,1,0,0,0,0,0,0,0,0,0,0,5
4Cal2AE6cr7m6nL20Rz2kQ,Ryman Auditorium,116 Rep John Lewis Way N,Nashville,TN,36.1612472,-86.7784711,4.5,574,"Local Flavor, Hotels & Travel, Music Venues, Nightlife, Tours, Historical Tours, Arts & Entertainment, Cinema, Restaurants, Museums, American (Traditional)",1,0,1,0,0,0,0,0,0,0,0,0,0,0,0,5
C9K3579SJgLPp0oAOM29wg,Peg Leg Porker,903 Gleaves St,Nashville,TN,36.151645,-86.781151,4.5,2878,"Pubs, Nightlife, American (Traditional), Barbeque, Restaurants, Bars",1,0,1,0,0,0,0,0,0,0,0,0,0,0,0,5
MHcOkWBRXi-OxkIlCSlsOQ,The Chop House,200 N Anderson Ln,Hendersonville,TN,36.320608,-86.5961788,4.0,183,"American (New), Restaurants, Steakhouses, Seafood",1,0,0,0,0,0,0,0,0,0,0,0,0,0,1,5
XlvQFgMcMpic6X1cW06VoQ,Bonefish Grill,3010 A Mallory Ln,Franklin,TN,35.9469222479,-86.8180705288,3.5,187,"Nightlife, Bars, American (New), Cocktail Bars, Seafood, Restaurants, American (Traditional)",1,0,1,0,0,0,0,0,0,0,0,0,0,0,1,5
